<?xml version="1.0" encoding="UTF-8"?>
<kml xmlns="http://earth.google.com/kml/2.2">
<Document><Placemark><name>name</name><description>description</description><Point><coordinates>lon,lat,0.0</coordinates></Point></Placemark>
<Placemark><name>Ƃ񂩂܂</name><description>150-0001@saJ_{OSڂW|T </description><Point><coordinates>139.71153,35.667982,0.0</coordinates></Point></Placemark>
<Placemark><name>_Jo[</name><description>111-0032@s䓌󑐂PڂP|P </description><Point><coordinates>139.797472,35.710969,0.0</coordinates></Point></Placemark>
<Placemark><name>ˉVh{X</name><description>160-0023@sVh搼VhVڂQ|U</description><Point><coordinates>139.698653,35.695586,0.0</coordinates></Point></Placemark>
<Placemark><name>AWF[i</name><description>104-0061@sRڂQ|P </description><Point><coordinates>139.770825,35.672114,0.0</coordinates></Point></Placemark>
<Placemark><name>΂߂</name><description>104-0061@sPڂQ|P </description><Point><coordinates>139.766647,35.675539,0.0</coordinates></Point></Placemark>
<Placemark><name>߂</name><description>103-0027@s{PڂPQ|PO </description><Point><coordinates>139.775588,35.68257,0.0</coordinates></Point></Placemark>
<Placemark><name>t{X</name><description>164-0001@s撆TڂTW|P|QOQ </description><Point><coordinates>139.666494,35.707987,0.0</coordinates></Point></Placemark>
<Placemark><name>jԝfˊЁ^LX</name><description>160-0022@sVhVhRڂV|Q </description><Point><coordinates>139.706058,35.690843,0.0</coordinates></Point></Placemark>
<Placemark><name>LJcb{X</name><description>150-0013@saJbSڂX|T|POT </description><Point><coordinates>139.713229,35.645924,0.0</coordinates></Point></Placemark>
<Placemark><name>ȊP</name><description>162-0825@sVh_yPڂPQ|P </description><Point><coordinates>139.74232,35.700647,0.0</coordinates></Point></Placemark>
<Placemark><name>u[m[g</name><description>107-0062@s`RUڂR|PU </description><Point><coordinates>139.716144,35.661166,0.0</coordinates></Point></Placemark>
<Placemark><name>Cp[Nze</name><description>103-0014@s{akQڂP</description><Point><coordinates>139.786632,35.68232,0.0</coordinates></Point></Placemark>
<Placemark><name>R</name><description>193-0846@sqs쒬RSQU</description><Point><coordinates>139.257253,35.615967,0.0</coordinates></Point></Placemark>
<Placemark><name>RΏaJX</name><description>150-0002@saJaJRڂPR|V </description><Point><coordinates>139.706421,35.655631,0.0</coordinates></Point></Placemark>
<Placemark><name>ʂЂ</name><description>103-0013@s{l`PڂPV|PO </description><Point><coordinates>139.78291,35.684977,0.0</coordinates></Point></Placemark>
<Placemark><name>VՂVhȔ^{X</name><description>160-0022@sVhVhRڂRP|W </description><Point><coordinates>139.703411,35.690788,0.0</coordinates></Point></Placemark>
<Placemark><name>\Ƃ񂱂[</name><description>150-0012@saJLPڂP|RU </description><Point><coordinates>139.712067,35.64986,0.0</coordinates></Point></Placemark>
<Placemark><name>isJ{X</name><description>102-0074@sciSڂV|PU </description><Point><coordinates>139.73881,35.691642,0.0</coordinates></Point></Placemark>
<Placemark><name>B񂪂猴hX</name><description>150-0001@saJ_{OPڂPR|QP </description><Point><coordinates>139.703559,35.669768,0.0</coordinates></Point></Placemark>
<Placemark><name>LtF{</name><description>104-0061@sQڂT|S </description><Point><coordinates>139.767216,35.674052,0.0</coordinates></Point></Placemark>
<Placemark><name>}A[WEt[{X</name><description>104-0061@sTڂU|U </description><Point><coordinates>139.766467,35.672307,0.0</coordinates></Point></Placemark>
<Placemark><name>В{X</name><description>160-0022@sVhVhRڂQU|PR</description><Point><coordinates>139.702186,35.691857,0.0</coordinates></Point></Placemark>
<Placemark><name>JtFE~PWF</name><description>150-0033@saJ扎yQX|R </description><Point><coordinates>139.699368,35.64849,0.0</coordinates></Point></Placemark>
<Placemark><name>ъ</name><description>153-0051@sڍڍQڂU|S </description><Point><coordinates>139.699063,35.642918,0.0</coordinates></Point></Placemark>
<Placemark><name>y</name><description>150-0043@saJ擹QڂPV|U </description><Point><coordinates>139.696869,35.659039,0.0</coordinates></Point></Placemark>
<Placemark><name>LBsܔcX</name><description>141-0022@si擌ܔcPڂQP|PO </description><Point><coordinates>139.726186,35.625902,0.0</coordinates></Point></Placemark>
<Placemark><name>Ճm悩낤</name><description>105-0001@s`ՃmRڂW|Q </description><Point><coordinates>139.747828,35.66663,0.0</coordinates></Point></Placemark>
<Placemark><name>Vi^ܔcX</name><description>141-0031@si搼ܔcPڂPP|X|a</description><Point><coordinates>139.723342,35.624409,0.0</coordinates></Point></Placemark>
<Placemark><name>RJXgLy</name><description>100-0006@scLyPڂPP|P </description><Point><coordinates>139.760848,35.673219,0.0</coordinates></Point></Placemark>
<Placemark><name>CIfhmy`ok`bdX</name><description>104-0061@sTڂW|P|aQe </description><Point><coordinates>139.764999,35.670777,0.0</coordinates></Point></Placemark>
<Placemark><name>nVXpQbeBVh쑺rX</name><description>163-0590@sVh搼VhPڂQU|Q|QPXa </description><Point><coordinates>139.695239,35.693024,0.0</coordinates></Point></Placemark>
<Placemark><name>c}zeZ`[TU^[</name><description>151-0053@saJX؂QڂQ|P </description><Point><coordinates>139.700303,35.686359,0.0</coordinates></Point></Placemark>
<Placemark><name>u</name><description>152-0035@sڍ掩RuPڂQX|R </description><Point><coordinates>139.668841,35.608288,0.0</coordinates></Point></Placemark>
<Placemark><name>TN[</name><description>152-0035@sڍ掩RuQڂQQ|S </description><Point><coordinates>139.666475,35.612721,0.0</coordinates></Point></Placemark>
<Placemark><name>iCXg</name><description>104-0061@sSڂPO|V </description><Point><coordinates>139.767193,35.670124,0.0</coordinates></Point></Placemark>
<Placemark><name>ꗖZ{ؑ]ːwX</name><description>106-0032@s`Z{؂SڂPP|PP </description><Point><coordinates>139.731483,35.664171,0.0</coordinates></Point></Placemark>
<Placemark><name>P^{vX</name><description>150-0002@saJaJPڂPQ|PQ </description><Point><coordinates>139.704406,35.659975,0.0</coordinates></Point></Placemark>
<Placemark><name>ǂƂڂ_̕꒬X</name><description>160-0021@sVh̕꒬PڂPS|P </description><Point><coordinates>139.702126,35.694396,0.0</coordinates></Point></Placemark>
<Placemark><name>꒚^{X</name><description>104-0061@sPڂQ|R </description><Point><coordinates>139.768596,35.67515,0.0</coordinates></Point></Placemark>
<Placemark><name>낽</name><description>107-0052@s`ԍSڂP|S </description><Point><coordinates>139.735399,35.676627,0.0</coordinates></Point></Placemark>
<Placemark><name>LEtFE{R</name><description>107-0062@s`RRڂPW|T</description><Point><coordinates>139.7137,35.665076,0.0</coordinates></Point></Placemark>
<Placemark><name>snq`x`b`edZ{؃qYX</name><description>106-0032@s`Z{؂UڂPQ|Q</description><Point><coordinates>139.728281,35.660815,0.0</coordinates></Point></Placemark>
<Placemark><name>VY[^VhOrX</name><description>163-0402@sVh搼VhQڂP|P</description><Point><coordinates>139.693664,35.691329,0.0</coordinates></Point></Placemark>
<Placemark><name>V_</name><description>160-0023@sVh搼VhVڂPT|PV</description><Point><coordinates>139.702115,35.693212,0.0</coordinates></Point></Placemark>
<Placemark><name>tѓcX</name><description>102-0071@scxmQڂPQ|PU|POU</description><Point><coordinates>139.744525,35.698917,0.0</coordinates></Point></Placemark>
<Placemark><name>B񂪂^Ht{X</name><description>101-0021@scO_cRڂPP|U</description><Point><coordinates>139.770678,35.700802,0.0</coordinates></Point></Placemark>
<Placemark><name>J</name><description>104-0061@sQڂS|PQ</description><Point><coordinates>139.765281,35.671925,0.0</coordinates></Point></Placemark>
<Placemark><name>VJ~</name><description>111-0032@s䓌󑐂PڂSP|S</description><Point><coordinates>139.793827,35.712938,0.0</coordinates></Point></Placemark>
<Placemark><name>~L[EGCX</name><description>170-0013@sL擌r܂PڂPQ|W</description><Point><coordinates>139.713646,35.743326,0.0</coordinates></Point></Placemark>
<Placemark><name>vq</name><description>104-0061@sWڂV|U</description><Point><coordinates>139.76127,35.668468,0.0</coordinates></Point></Placemark>
<Placemark><name>WhՂ̖{X</name><description>105-0001@s`ՃmRڂW|QS</description><Point><coordinates>139.743667,35.662109,0.0</coordinates></Point></Placemark>
<Placemark><name>eBLeBLVhX</name><description>160-0022@sVhVhRڂS|W</description><Point><coordinates>139.705272,35.690877,0.0</coordinates></Point></Placemark>
<Placemark><name>单ƓVn</name><description>111-0032@s䓌󑐂PڂRP|X</description><Point><coordinates>139.795585,35.712745,0.0</coordinates></Point></Placemark>
<Placemark><name>t؉E{X</name><description>167-0043@s㉬PڂS|U</description><Point><coordinates>139.622389,35.705057,0.0</coordinates></Point></Placemark>
<Placemark><name>CזLJb^X</name><description>105-0021@s`擌VPڂW|Q</description><Point><coordinates>139.762605,35.664949,0.0</coordinates></Point></Placemark>
<Placemark><name>A}|[bX</name><description>150-0022@saJbRڂP|QS</description><Point><coordinates>139.706101,35.646083,0.0</coordinates></Point></Placemark>
<Placemark><name>{X</name><description>104-0061@sRڂT|PU</description><Point><coordinates>139.770825,35.672114,0.0</coordinates></Point></Placemark>
<Placemark><name>NAEACi</name><description>107-0062@s`RTڂPO|QP</description><Point><coordinates>139.714894,35.66523,0.0</coordinates></Point></Placemark>
<Placemark><name>j[nI</name><description>144-0052@sc抗cSڂQT|V</description><Point><coordinates>139.721994,35.56007,0.0</coordinates></Point></Placemark>
<Placemark><name>`</name><description>150-0022@saJbPڂQ|W</description><Point><coordinates>139.707669,35.646038,0.0</coordinates></Point></Placemark>
<Placemark><name>|̎ANAVeBX</name><description>135-0091@s`PڂV|P|qTPQ</description><Point><coordinates>139.772605,35.627055,0.0</coordinates></Point></Placemark>
<Placemark><name>Lq̉^kX</name><description>155-0032@scJTڂRU|PU</description><Point><coordinates>139.667333,35.659058,0.0</coordinates></Point></Placemark>
<Placemark><name>LЃ}WbNXpCX</name><description>155-0031 scJkPڂSO|PT</description><Point><coordinates>139.668332,35.663365,0.0</coordinates></Point></Placemark>
<Placemark><name>aJO\ܒi</name><description>150-0044@saJ~RP|P</description><Point><coordinates>139.6954,35.65983,0.0</coordinates></Point></Placemark>
<Placemark><name>˒rܓ{X</name><description>171-0022@sLr܂PڂPW|QQ</description><Point><coordinates>139.711722,35.727395,0.0</coordinates></Point></Placemark>
<Placemark><name></name><description>180-0004 ssgˎ{PڂP?P?W</description><Point><coordinates>139.579158,35.703922,0.0</coordinates></Point></Placemark>
<Placemark><name>叟</name><description>168-0063@saRڂT|R</description><Point><coordinates>139.644004,35.67626,0.0</coordinates></Point></Placemark>
<Placemark><name>[bK[fvCXxX</name><description>150-6038@saJbSڂQO|RO</description><Point><coordinates>139.713316,35.641948,0.0</coordinates></Point></Placemark>
<Placemark><name>rA[hpp̍肽čH[^aJ}X</name><description>150-0043@saJ擹PڂPQ|R </description><Point><coordinates>139.699048,35.658244,0.0</coordinates></Point></Placemark>
<Placemark><name>Ru[</name><description>152-0035@sڍ掩RuPڂQR|Q</description><Point><coordinates>139.669819,35.611385,0.0</coordinates></Point></Placemark>
<Placemark><name>BbW@K[h_Ci[gˎX</name><description>180-0004@ssgˎ{QڂQO|P</description><Point><coordinates>139.575332,35.703644,0.0</coordinates></Point></Placemark>
<Placemark><name>]JCU[{X</name><description>103-0027@s{PڂS|P</description><Point><coordinates>139.774334,35.68268,0.0</coordinates></Point></Placemark>
<Placemark><name>̖^{X </name><description>101-0041@sc_c{cQڂQP</description><Point><coordinates>139.772285,35.698415,0.0</coordinates></Point></Placemark>
<Placemark><name>E]EfEVR\QX</name><description>107-0061@s`kRRڂPO|W</description><Point><coordinates>139.711304,35.664193,0.0</coordinates></Point></Placemark>
<Placemark><name>Д~</name><description>111-0032@s䓌󑐂PڂRP|PP</description><Point><coordinates>139.798492,35.712123,0.0</coordinates></Point></Placemark>
<Placemark><name>JtFN[v[EEu^[j\QX</name><description>150-0001@saJ_{ORڂT|S</description><Point><coordinates>139.7123,35.668746,0.0</coordinates></Point></Placemark>
<Placemark><name>ԍѓX^pXTChxX</name><description>100-0003@sccPڂP|P</description><Point><coordinates>139.757178,35.691175,0.0</coordinates></Point></Placemark>
<Placemark><name>LЂԂΐ_c{X</name><description>101-0063@sc_cWHQڂPO</description><Point><coordinates>139.768648,35.697034,0.0</coordinates></Point></Placemark>
<Placemark><name>ڂ</name><description>101-0051@sc_c_ےPڂPP</description><Point><coordinates>139.758599,35.695554,0.0</coordinates></Point></Placemark>
<Placemark><name>pXze</name><description>100-0005@scۂ̓PڂP|P</description><Point><coordinates>139.761,35.68474,0.0</coordinates></Point></Placemark>
<Placemark><name>Ƃ</name><description>141-0031@si搼ܔcVڂT|R</description><Point><coordinates>139.719143,35.623903,0.0</coordinates></Point></Placemark>
<Placemark><name>ou[</name><description>150-0001@saJ_{OTڂW|W</description><Point><coordinates>139.708071,35.666634,0.0</coordinates></Point></Placemark>
<Placemark><name>ꕗbX</name><description>150-0012@saJLPڂR|PQ|POQ</description><Point><coordinates>139.713197,35.648664,0.0</coordinates></Point></Placemark>
<Placemark><name>ԃ`</name><description>171-0022@sLr܂QڂQU|Q</description><Point><coordinates>139.710514,35.731408,0.0</coordinates></Point></Placemark>
<Placemark><name>딭[</name><description>192-0903@sqsPX|P</description><Point><coordinates>139.333755,35.6544,0.0</coordinates></Point></Placemark>
<Placemark><name>vUze</name><description>206-0033@ssPڂSR</description><Point><coordinates>139.424837,35.623405,0.0</coordinates></Point></Placemark>
<Placemark><name>X[JtFb</name><description>150-0013@saJbSڂS|U</description><Point><coordinates>139.711835,35.645344,0.0</coordinates></Point></Placemark>
<Placemark><name>peBX[EAeXEFC</name><description>180-0002@ssgˎRڂW|W</description><Point><coordinates>139.590717,35.709005,0.0</coordinates></Point></Placemark>
<Placemark><name>jt`E`hm`ۃrX</name><description>100-6305@scۂ̓QڂS|P </description><Point><coordinates>139.763781,35.680696,0.0</coordinates></Point></Placemark>
<Placemark><name>܂⌴h{X</name><description>150-0001@saJ_{OUڂP|U</description><Point><coordinates>139.706281,35.667505,0.0</coordinates></Point></Placemark>
<Placemark><name>ߖ十X</name><description>104-0061@sPڂPO|U</description><Point><coordinates>139.769106,35.673572,0.0</coordinates></Point></Placemark>
<Placemark><name>}lP</name><description>104-0061@sTڂV|PX</description><Point><coordinates>139.764501,35.671322,0.0</coordinates></Point></Placemark>
<Placemark><name>Ƃ</name><description>153-0064@sڍ扺ڍPڂP|Q</description><Point><coordinates>139.714229,35.633634,0.0</coordinates></Point></Placemark>
<Placemark><name>Jv`[UaJ{X</name><description>150-0011@saJ擌PڂR|P</description><Point><coordinates>139.708198,35.65754,0.0</coordinates></Point></Placemark>
<Placemark><name>ЃAEVpeBG{X</name><description>104-0061@sQڂW|QO</description><Point><coordinates>139.768183,35.67332,0.0</coordinates></Point></Placemark>
<Placemark><name>iR[h</name><description>155-0031@scJkQڂPR|T</description><Point><coordinates>139.667464,35.660381,0.0</coordinates></Point></Placemark>
<Placemark><name>yԓyԁEܔcX</name><description>141-0022@si擌ܔcQڂQ|PU</description><Point><coordinates>139.724891,35.625547,0.0</coordinates></Point></Placemark>
<Placemark><name>}_</name><description>101-0051@sc_c_ےQڂPV</description><Point><coordinates>139.757662,35.695101,0.0</coordinates></Point></Placemark>
<Placemark><name>[߂ rܓX</name><description>171-0014 sLr܂Q?PX?R V@r</description><Point><coordinates>139.705369,35.732412,0.0</coordinates></Point></Placemark>
<Placemark><name>undefined</name><description>undefined</description><Point><coordinates>,undefined,0.0</coordinates></Point></Placemark>
</Document>
</kml>
